City_ID,City,Lat,Lng,Max Temp,Humidity,Cloudiness,Wind Speed,Country,Date
0,laguna,38.421,-121.4238,15.3,72,0,3.09,US,1708123491
1,nar'yan-mar,67.6713,53.087,-21.61,88,13,4.02,RU,1708123491
2,adamstown,-25.066,-130.1015,24.93,79,88,3.95,PN,1708123491
3,blackmans bay,-43.0167,147.3167,19.29,72,80,0.45,AU,1708123491
4,whitehorse,60.7161,-135.0538,-3.32,63,0,5.66,CA,1708123491
5,hawaiian paradise park,19.5933,-154.9731,23.83,94,100,7.72,US,1708123492
6,grytviken,-54.2811,-36.5092,3.02,87,15,4.62,GS,1708123492
7,albany,42.6001,-73.9662,-0.11,50,43,2.68,US,1708123251
8,ushuaia,-54.8,-68.3,17.81,52,0,6.17,AR,1708123281
9,waitangi,-43.9535,-176.5597,17.12,73,0,3.2,NZ,1708123492
10,camocim,-2.9022,-40.8411,26.51,83,98,4.66,BR,1708123493
11,tolanaro,-25.0319,46.9987,25.04,83,40,2.06,MG,1708123493
12,stanley,54.868,-1.6985,7.77,94,40,1.03,GB,1708123493
13,prince rupert,54.3161,-130.3201,11.05,25,0,3.6,CA,1708123493
14,kidal,18.4411,1.4078,22.51,11,3,4.33,ML,1708123493
15,buka,40.8108,69.1986,-3.25,85,100,2.18,UZ,1708123493
16,kayangel,8.0823,134.7173,27.2,82,10,8.2,PW,1708123493
17,bilibino,68.0546,166.4372,-33.29,94,73,1.35,RU,1708123494
18,hilo,19.7297,-155.09,23.95,87,100,7.72,US,1708123494
19,ribeira grande,38.5167,-28.7,18.21,87,100,10.73,PT,1708123494
20,rundu,-17.9333,19.7667,23.05,55,56,2.6,NA,1708123494
21,lensk,60.7253,114.9278,-30.18,97,100,1.59,RU,1708123494
22,ola,59.5833,151.2833,-21.59,86,100,2.52,RU,1708123494
23,hammerfest,70.6634,23.6821,-2.75,80,75,3.6,NO,1708123494
24,ketchikan,55.3422,-131.6461,12.26,22,0,3.6,US,1708123495
25,port-aux-francais,-49.35,70.2167,4.94,77,98,15.81,TF,1708123495
26,kikvidze,50.7416,43.0518,-10.79,81,100,4.01,RU,1708123495
27,dourbali,11.8091,15.8632,21.82,14,79,6.39,TD,1708123495
28,bardai,11.65,7.2333,20.18,22,47,4.64,NG,1708123495
29,kozova,49.4354,25.1509,2.32,90,22,3.68,UA,1708123495
30,zyryanskoye,56.8306,86.6258,-22.75,96,100,4.86,RU,1708123495
31,broken hill,-31.95,141.4333,27.83,20,4,6.43,AU,1708123496
32,miranda,3.2499,-76.2281,30.07,79,87,0.69,CO,1708123496
33,kununurra,-15.7667,128.7333,26.99,83,87,1.03,AU,1708123496
34,lorengau,-2.0226,147.2712,28.95,74,68,0.69,PG,1708123496
35,west island,-12.1568,96.8225,26.99,83,40,2.06,CC,1708123496
36,yellowknife,62.456,-114.3525,-8.1,90,75,6.17,CA,1708123377
37,kabompo,-13.5927,24.2008,19.99,73,89,1.82,ZM,1708123496
38,iqaluit,63.7506,-68.5145,-29.06,68,20,5.66,CA,1708123497
39,severnoye,56.3491,78.3619,-20.57,98,100,4.02,RU,1708123497
40,la'ie,21.6477,-157.9253,25.98,58,11,2.68,US,1708123497
41,olonkinbyen,70.9221,-8.7187,-6.78,77,66,5.31,SJ,1708123497
42,kerikeri,-35.2268,173.9474,25.51,69,49,2.84,NZ,1708123497
43,marco,25.9726,-81.729,24.01,70,75,3.09,US,1708123497
44,carutapera,-1.195,-46.02,25.23,94,80,2.43,BR,1708123497
45,la passe,45.5549,-0.8967,10.13,86,8,2.02,FR,1708123498
46,zhanaozen,43.3,52.8,-4.76,49,100,11.05,KZ,1708123498
47,lebu,-37.6167,-73.65,17.23,90,62,4.96,CL,1708123498
48,port alfred,-33.5906,26.891,16.21,73,13,0.89,ZA,1708123498
49,invercargill,-46.4,168.35,20.01,65,78,2.68,NZ,1708123498
50,chimbote,-9.0853,-78.5783,25.47,77,45,5.43,PE,1708123459
51,san patricio,28.017,-97.5169,18.05,94,100,3.8,US,1708123498
52,tanumah,27.1,44.1333,15.89,34,0,3.61,SA,1708123499
53,bethel,41.3712,-73.414,3.17,42,0,2.57,US,1708123499
54,hithadhoo,-0.6,73.0833,27.85,77,100,2.52,MV,1708123499
55,jianshui,23.6363,102.8264,11.37,89,2,1.73,CN,1708123499
56,petropavlovsk-kamchatsky,53.0452,158.6483,-13.67,83,20,4.0,RU,1708123499
57,gua musang,4.8823,101.9644,21.33,100,87,0.48,MY,1708123499
58,trairi,-3.2778,-39.2689,26.16,84,50,3.23,BR,1708123500
59,celestun,20.8667,-90.4,24.81,81,70,4.55,MX,1708123500
60,longyearbyen,78.2186,15.6401,-9.09,67,75,5.66,SJ,1708123500
61,klyuchi,52.2667,79.1667,-24.71,95,99,4.32,RU,1708123500
62,nizhneudinsk,54.9076,99.0276,-23.34,81,100,4.47,RU,1708123500
63,puerto natales,-51.7236,-72.4875,14.79,85,47,1.64,CL,1708123501
64,hamilton,39.1834,-84.5333,0.8,87,100,5.14,US,1708123501
65,margaret river,-33.95,115.0667,17.63,85,100,4.82,AU,1708123501
66,alice springs,-23.7,133.8833,30.68,48,60,6.17,AU,1708123501
67,sittwe,20.15,92.9,20.25,62,0,5.5,MM,1708123501
68,mogocha,53.7333,119.7667,-18.35,99,100,0.76,RU,1708123501
69,malango,-2.9627,119.9001,21.16,96,100,0.37,ID,1708123502
70,argo,37.6333,22.7333,7.66,74,58,1.32,GR,1708123502
71,freetown,8.484,-13.2299,28.84,74,20,5.14,SL,1708123502
72,parras de la fuente,25.4167,-102.1833,9.63,90,100,4.43,MX,1708123503
73,port lincoln,-34.7333,135.8667,20.55,65,48,4.59,AU,1708123503
74,berdigestyakh,62.0989,126.6992,-35.63,93,51,3.22,RU,1708123504
75,bredasdorp,-34.5322,20.0403,15.87,69,49,2.99,ZA,1708123504
76,papatowai,-46.5619,169.4708,18.46,55,95,0.85,NZ,1708123504
77,sarupathar,26.1984,93.8094,15.37,71,3,0.72,IN,1708123505
78,saipan,15.1355,145.701,26.39,89,40,4.63,MP,1708123505
79,edinburgh of the seven seas,-37.0676,-12.3116,17.86,76,58,7.69,SH,1708123505
80,punta arenas,-53.15,-70.9167,15.06,67,0,5.14,CL,1708123505
81,qaqortoq,60.7167,-46.0333,1.99,54,100,6.16,GL,1708123506
82,gerash,27.6652,54.1371,16.27,63,10,1.1,IR,1708123506
83,constitucion,-35.3333,-72.4167,17.6,70,13,6.2,CL,1708123506
84,plettenberg bay,-34.0527,23.3716,16.76,75,88,6.62,ZA,1708123506
85,lompoc,34.6391,-120.4579,19.23,64,0,4.63,US,1708123506
86,sassandra,4.95,-6.0833,27.8,85,89,4.35,CI,1708123507
87,port mathurin,-19.6833,63.4167,26.61,80,98,13.29,MU,1708123507
88,remire-montjoly,4.9167,-52.2667,28.02,74,0,4.12,GF,1708123507
89,kurumkan,54.3,110.3,-23.26,86,24,3.13,RU,1708123507
90,utrik,11.2278,169.8474,25.95,82,98,10.84,MH,1708123507
91,wailua homesteads,22.0669,-159.378,23.24,64,40,8.75,US,1708123507
92,loango,-4.6719,11.8312,28.81,84,75,5.14,CG,1708123508
93,mount pearl,47.5166,-52.7813,-1.42,95,75,4.12,CA,1708123232
94,masterton,-40.9597,175.6575,21.72,57,99,3.09,NZ,1708123508
95,turan,16.0678,108.2208,21.99,94,75,1.54,VN,1708123508
96,bada,51.392,109.8717,-22.26,92,100,3.28,RU,1708123508
97,merizo village,13.2658,144.6691,27.43,88,37,5.43,GU,1708123509
98,hermanus,-34.4187,19.2345,17.05,64,39,1.12,ZA,1708123509
99,fortuna,40.5982,-124.1573,17.03,65,0,6.17,US,1708123509
100,mount gambier,-37.8333,140.7667,19.07,60,64,2.93,AU,1708123509
101,anadyr,64.75,177.4833,-19.72,84,40,2.0,RU,1708123510
102,la junta,37.985,-103.5438,0.16,80,100,5.14,US,1708123510
103,college,64.8569,-147.8028,-6.82,67,0,0.0,US,1708123510
104,manta,-0.95,-80.7333,26.88,83,75,6.71,EC,1708123305
105,dunedin,-45.8742,170.5036,17.76,62,79,2.28,NZ,1708123510
106,copala,16.65,-98.9833,28.93,57,4,3.7,MX,1708123510
107,isafjordur,66.0755,-23.124,-2.16,66,100,2.34,IS,1708123511
108,tiksi,71.6872,128.8694,-35.99,100,100,0.88,RU,1708123511
109,nebraska city,40.6767,-95.8592,-1.76,64,40,7.72,US,1708123275
110,bandarbeyla,9.4942,50.8122,24.89,72,5,4.42,SO,1708123511
111,talnakh,69.4865,88.3972,-33.84,87,27,1.52,RU,1708123511
112,kodiak,57.79,-152.4072,3.73,87,100,10.8,US,1708123512
113,vila velha,-20.3297,-40.2925,25.97,90,40,1.54,BR,1708123512
114,molina,-35.1167,-71.2833,30.85,37,0,4.63,CL,1708123512
115,fort st. john,56.2499,-120.8529,0.94,29,75,1.54,CA,1708123322
116,brookings,44.3114,-96.7984,-12.16,75,0,8.75,US,1708123262
117,nasugbu,14.1,120.6833,22.82,86,51,4.43,PH,1708123512
118,baie-saint-paul,47.4411,-70.4986,-3.01,82,100,2.57,CA,1708123395
119,nova sintra,14.8667,-24.7167,20.94,78,3,10.41,CV,1708123513
120,ust-nera,64.5667,143.2,-43.11,99,66,0.52,RU,1708123513
121,puerto armuelles,8.2833,-82.8667,31.99,62,70,0.45,PA,1708123513
122,hovd,48.0056,91.6419,-16.95,54,8,6.15,MN,1708123513
123,szydlowiec,51.2282,20.8611,5.85,80,61,3.42,PL,1708123514
124,sandnessjoen,66.0217,12.6316,1.06,86,75,5.14,NO,1708123514
125,togur,58.3631,82.8265,-21.59,98,100,2.24,RU,1708123514
126,hobyo,5.3505,48.5268,26.13,73,4,6.89,SO,1708123514
127,ankazoabo,-22.2833,44.5167,22.3,91,46,1.67,MG,1708123514
128,vilyuchinsk,52.9306,158.4028,-12.85,71,100,4.55,RU,1708123514
129,hutchinson island south,27.2995,-80.2205,24.49,73,75,5.14,US,1708123515
130,bodo,67.28,14.405,-1.14,91,75,1.03,NO,1708123515
131,gamba,-2.65,10.0,26.61,85,100,1.66,GA,1708123515
132,vadso,70.0744,29.7487,-3.91,93,75,7.2,NO,1708123515
133,ryotsu-minato,38.0833,138.4333,3.68,64,8,3.61,JP,1708123515
134,banda aceh,5.5577,95.3222,26.08,79,95,5.4,ID,1708123515
135,rongelap,11.1635,166.8941,26.18,82,90,10.78,MH,1708123516
136,happy valley-goose bay,53.3168,-60.3315,-8.83,86,100,3.6,CA,1708123516
137,atherton,53.5237,-2.4935,10.2,95,100,1.27,GB,1708123516
138,selkirk,50.1436,-96.8845,-10.47,78,100,4.15,CA,1708123225
139,manokwari,-0.8667,134.0833,27.28,68,14,3.25,ID,1708123516
140,luderitz,-26.6481,15.1594,16.28,70,0,8.36,NA,1708123517
141,mumias,0.3351,34.4864,20.13,70,71,1.31,KE,1708123517
142,moa,20.6569,-74.9403,25.44,77,52,5.45,CU,1708123517
143,fort bragg,35.139,-79.006,15.75,49,75,0.0,US,1708123517
144,atafu village,-8.5421,-172.5159,28.58,78,100,7.56,TK,1708123517
145,cloverdale,38.8055,-123.0172,16.21,74,100,1.34,US,1708123517
146,arraial do cabo,-22.9661,-42.0278,24.98,88,75,6.17,BR,1708123518
147,tirebolu,41.0069,38.8139,8.89,96,100,2.74,TR,1708123518
148,hadibu,12.65,54.0333,24.07,74,53,3.23,YE,1708123518
149,kingston,17.997,-76.7936,28.53,77,20,8.23,JM,1708123490
150,mamedkala,42.1677,48.1199,2.36,93,100,3.86,RU,1708123518
151,bryne,58.7354,5.6477,4.97,95,75,6.69,NO,1708123481
152,guarapari,-20.6667,-40.4975,24.94,87,31,1.02,BR,1708123519
153,greymouth,-42.4667,171.2,18.12,67,99,2.85,NZ,1708123519
154,huanan,46.2167,130.5167,-8.31,88,100,2.39,CN,1708123519
155,port elizabeth,-33.918,25.5701,19.16,68,0,8.75,ZA,1708123519
156,labrador city,52.9463,-66.9114,-19.05,71,20,1.54,CA,1708123520
157,haiku-pauwela,20.9219,-156.3051,22.36,80,75,6.17,US,1708123520
158,minas de marcona,-15.2119,-75.1103,19.88,81,82,7.09,PE,1708123520
159,chetwayi,10.5333,76.05,25.73,68,41,5.8,IN,1708123520
160,nikolayevsk-on-amure,53.1406,140.73,-21.67,96,58,1.36,RU,1708123521
161,ibotirama,-12.1853,-43.2206,26.63,65,96,1.14,BR,1708123521
162,abepura,-2.6333,140.5833,25.45,94,20,0.51,ID,1708123521
163,iskateley,67.6803,53.1512,-21.66,88,13,4.02,RU,1708123521
164,ilulissat,69.2167,-51.1,-14.99,85,20,4.12,GL,1708123521
165,vuktyl,63.8567,57.3094,-25.5,98,43,2.68,RU,1708123521
166,funafuti,-8.5243,179.1942,28.0,83,100,7.2,TV,1708123522
167,neryungri,56.6709,124.6491,-21.72,99,100,1.69,RU,1708123522
168,manadhoo,5.7667,73.3833,28.26,74,98,4.49,MV,1708123522
169,kailua-kona,19.6406,-155.9956,28.06,72,100,10.8,US,1708123522
170,georgetown,5.4112,100.3354,27.96,81,20,4.12,MY,1708123481
171,coquimbo,-29.9533,-71.3436,19.85,82,75,4.63,CL,1708123522
172,thompson,55.7435,-97.8558,-12.91,78,100,5.14,CA,1708123522
173,lepsy,46.235,78.9456,-22.88,78,15,0.11,KZ,1708123523
174,colonia,50.9333,6.95,11.6,85,75,1.03,DE,1708123475
175,kuraymah,18.55,31.85,14.93,32,0,5.21,SD,1708123523
176,tralee,52.2704,-9.7026,9.9,98,81,2.46,IE,1708123523
177,linxia chengguanzhen,35.6003,103.2064,3.2,26,17,1.19,CN,1708123523
178,lagoa,39.05,-27.9833,16.57,86,100,11.27,PT,1708123524
179,villa gesell,-37.2639,-56.973,22.25,87,0,6.76,AR,1708123524
180,beira,-19.8436,34.8389,26.79,87,0,3.43,MZ,1708123524
181,grand falls-windsor,48.9332,-55.6649,-3.61,84,98,0.45,CA,1708123524
182,phalaborwa,-23.943,31.1411,27.6,38,14,1.25,ZA,1708123524
183,maymana,35.9214,64.7836,11.43,48,100,1.62,AF,1708123525
184,alofi,-19.0595,-169.9187,28.94,65,75,7.2,NU,1708123525
185,badger,64.8,-147.5333,-6.86,71,20,0.0,US,1708123525
186,manicore,-5.8092,-61.3003,24.96,95,97,0.99,BR,1708123525
187,kolonia town,6.964,158.206,29.06,79,75,4.12,FM,1708123525
188,omutinskiy,56.4745,67.6709,-26.78,100,92,2.46,RU,1708123525
189,kaifeng,34.7911,114.3483,5.39,77,0,4.86,CN,1708123526
190,fale old settlement,-9.3852,-171.2468,28.35,80,100,8.31,TK,1708123526
191,chake chake,-5.2459,39.7666,27.09,86,99,3.94,TZ,1708123257
192,urucui,-7.2294,-44.5561,25.31,91,99,1.87,BR,1708123526
193,mugia,43.1041,-9.2179,11.62,89,61,4.29,ES,1708123526
194,korla,41.7597,86.1469,-0.23,21,71,9.68,CN,1708123527
195,mount isa,-20.7333,139.5,24.87,83,100,5.66,AU,1708123527
196,marco island,25.9363,-81.7157,24.0,69,75,3.09,US,1708123230
197,les avirons,-21.2418,55.3394,25.05,89,75,5.66,RE,1708123527
198,margate,51.3813,1.3862,10.94,75,60,2.24,GB,1708123414
199,lihue,21.9789,-159.3672,23.58,62,40,8.75,US,1708123527
200,pakuranga,-36.8833,174.9167,26.78,58,9,2.06,NZ,1708123527
201,takoradi,4.8845,-1.7554,27.85,85,54,3.59,GH,1708123528
202,kabo,7.6994,18.629,25.23,17,100,2.43,CF,1708123528
203,fougamou,-1.2154,10.5838,23.79,95,92,0.76,GA,1708123529
204,potosi,-19.5836,-65.7531,11.48,76,75,4.12,BO,1708123529
205,coaticook,45.1334,-71.7991,-5.1,96,100,1.88,CA,1708123529
206,sierra grande,-41.606,-65.3557,31.2,29,2,7.03,AR,1708123530
207,suva,-18.1416,178.4415,27.71,78,75,5.66,FJ,1708123530
208,fianarantsoa,-21.4333,47.0833,18.13,98,100,0.8,MG,1708123530
209,cooper's town,26.8667,-77.5167,22.23,66,98,3.53,BS,1708123530
210,mhamid,29.82,-5.72,20.43,19,59,1.62,MA,1708123530
211,usinsk,65.9939,57.5281,-26.19,94,13,5.32,RU,1708123530
212,howard springs,-12.497,131.047,29.37,93,68,3.7,AU,1708123531
213,malvan,16.0667,73.4667,23.39,51,4,2.48,IN,1708123531
214,ancud,-41.8697,-73.8203,14.41,81,97,4.12,CL,1708123531
215,sur,22.5667,59.5289,21.95,56,17,3.14,OM,1708123531
216,tofol,5.3248,163.0078,29.88,70,75,1.54,FM,1708123531
217,jennings,38.7192,-90.2604,-0.97,87,100,7.72,US,1708123532
218,duong dong,10.2167,103.9667,25.0,88,0,4.12,VN,1708123532
219,cuito,-12.3833,16.9333,17.12,87,79,2.23,AO,1708123532
220,jamestown,42.097,-79.2353,-2.23,68,100,3.13,US,1708123532
221,flying fish cove,-10.4217,105.6791,25.82,94,100,0.0,CX,1708123532
222,port augusta,-32.5,137.7667,27.58,21,0,2.55,AU,1708123532
223,sebdou,34.637,-1.3314,8.61,92,61,2.33,DZ,1708123532
224,tazovsky,67.4667,78.7,-33.16,98,15,2.2,RU,1708123533
225,khovd,48.0056,91.6419,-16.95,54,8,6.15,MN,1708123513
226,klaksvik,62.2266,-6.589,1.51,67,100,5.11,FO,1708123533
227,huanggang,23.677,116.9996,13.94,89,70,1.76,CN,1708123533
228,puerto ayora,-0.7393,-90.3518,29.98,89,84,3.58,EC,1708123533
229,kavieng,-2.5744,150.7967,28.72,76,100,2.4,PG,1708123534
230,ta`u,-14.2336,-169.5144,28.14,79,92,4.73,AS,1708123534
231,pauini,-7.7136,-66.9764,25.14,97,100,0.92,BR,1708123534
232,puerto baquerizo moreno,-0.9,-89.6,29.55,70,40,6.69,EC,1708123535
233,weno,7.4515,151.8468,27.97,78,75,4.63,FM,1708123535
234,udachny,66.4167,112.4,-41.42,57,97,2.08,RU,1708123535
235,hazorasp,41.3194,61.0742,-7.09,16,100,11.91,UZ,1708123535
236,dingcheng,32.1272,115.0394,6.82,84,0,3.06,CN,1708123536
237,polyarnyy,69.1989,33.4478,-10.49,93,81,7.65,RU,1708123536
238,kirensk,57.7853,108.1119,-30.58,100,100,1.34,RU,1708123536
239,shubarshi,48.5872,57.1869,-18.03,81,6,4.44,KZ,1708123536
240,codrington,-38.2667,141.9667,18.8,64,49,3.24,AU,1708123536
241,nemuro,43.3236,145.575,-5.5,83,90,1.22,JP,1708123536
242,quellon,-43.1167,-73.6167,13.52,91,93,1.63,CL,1708123537
243,el calafate,-50.3408,-72.2768,17.9,54,32,7.73,AR,1708123537
244,chonchi,-42.6128,-73.8092,15.73,91,90,1.84,CL,1708123537
245,boulder city,35.9786,-114.8325,19.43,27,0,3.09,US,1708123537
246,kachug,53.9606,105.8817,-31.41,98,66,1.9,RU,1708123537
247,kuvshinovo,57.0295,34.1725,-3.06,95,100,4.43,RU,1708123537
248,q'vareli,41.9549,45.8172,5.38,98,100,1.69,GE,1708123537
249,pemangkat,1.1667,108.9667,25.15,88,92,4.06,ID,1708123538
250,dalandzadgad,43.5708,104.425,2.86,31,66,13.62,MN,1708123542
251,tulun,54.5611,100.5792,-23.71,85,100,5.17,RU,1708123542
252,harper,4.375,-7.7169,27.66,84,71,4.14,LR,1708123542
253,gadzhiyevo,69.2551,33.3362,-11.15,95,84,7.31,RU,1708123542
254,raja,8.4596,25.678,24.03,24,77,2.56,SS,1708123543
255,dryden,49.7833,-92.7503,-14.84,51,0,5.66,CA,1708123543
256,tura,25.5198,90.2201,14.74,59,0,1.06,IN,1708123543
257,port douglas,-16.4833,145.4667,27.62,84,96,2.87,AU,1708123543
258,bolgatanga,10.7856,-0.8514,27.64,11,100,3.07,GH,1708123543
259,enewetak,11.3474,162.3373,26.46,83,27,10.79,MH,1708123543
260,fontanelas,38.8472,-9.4372,15.64,87,95,1.45,PT,1708123543
261,tutoia,-2.7619,-42.2744,26.89,85,99,4.04,BR,1708123543
262,parry sound,45.3501,-80.033,-4.97,68,100,1.82,CA,1708123544
263,cobija,-11.0267,-68.7692,31.1,74,75,1.54,BO,1708123544
264,kimbe,-5.5502,150.1429,29.08,75,84,0.65,PG,1708123544
265,salalah,17.0151,54.0924,25.05,73,75,1.03,OM,1708123544
266,aswan,24.0934,32.907,16.61,33,0,2.06,EG,1708123508
267,saint-philippe,-21.3585,55.7679,26.77,90,99,6.05,RE,1708123544
268,mwaya,-9.55,33.95,23.98,84,94,2.0,TZ,1708123544
269,mbandjok,4.45,11.9,23.84,79,78,2.46,CM,1708123545
270,valparaiso,-33.0393,-71.6273,23.13,67,0,5.14,CL,1708123316
271,vorgashor,67.5833,63.95,-29.23,99,62,3.12,RU,1708123545
272,yarmouth,41.7057,-70.2286,3.08,55,0,7.6,US,1708123545
273,ingeniero guillermo n. juarez,-23.9,-61.85,30.74,51,99,2.19,AR,1708123545
274,arkhangel'sk,64.5401,40.5433,-8.94,85,100,2.0,RU,1708123545
275,ghadamis,30.1337,9.5007,17.09,19,94,2.67,LY,1708123546
276,glace bay,46.1969,-59.957,-2.75,85,100,4.63,CA,1708123546
277,nuuk,64.1835,-51.7216,-4.66,80,40,7.2,GL,1708123546
278,uturoa,-16.7333,-151.4333,28.01,76,88,8.59,PF,1708123546
279,grimstad,58.3405,8.5934,0.95,98,91,6.03,NO,1708123546
280,sturgis,41.7992,-85.4192,-1.11,86,100,3.09,US,1708123546
281,vilyuysk,63.7553,121.6247,-36.11,95,83,3.13,RU,1708123546
282,pisco,-13.7,-76.2167,26.03,69,0,7.2,PE,1708123546
283,ribeira brava,32.65,-17.0667,18.35,79,37,3.1,PT,1708123547
284,taoudenni,22.6783,-3.9836,24.9,10,46,3.91,ML,1708123547
285,raduzhny,62.0961,77.475,-27.21,98,84,3.34,RU,1708123547
286,constantia,44.1833,28.65,2.61,80,55,4.7,RO,1708123446
287,ouesso,1.6136,16.0517,23.78,79,80,1.29,CG,1708123547
288,qarqaraly,49.4058,75.4742,-33.77,100,100,2.8,KZ,1708123547
289,douz,33.4663,9.0203,18.49,26,100,3.43,TN,1708123547
290,bairnsdale,-37.8333,147.6167,20.03,86,32,1.38,AU,1708123548
291,pasni,25.2631,63.471,22.11,57,87,3.41,PK,1708123548
292,muzaffarabad,34.37,73.4711,14.01,46,100,1.64,PK,1708123456
293,tabou,4.423,-7.3528,27.17,87,70,3.71,CI,1708123548
294,guerrero negro,27.9769,-114.0611,18.74,59,0,6.05,MX,1708123548
295,moose jaw,50.4001,-105.5344,-7.86,67,29,9.77,CA,1708123548
296,cabo san lucas,22.8909,-109.9124,25.9,49,0,6.69,MX,1708123362
297,fort stockton,30.894,-102.8793,21.2,15,0,4.63,US,1708123549
298,elko,41.0002,-115.5012,7.01,61,99,6.26,US,1708123510
299,batangafo,7.3008,18.2833,24.79,18,100,2.16,CF,1708123549
300,bogale,16.2833,95.4,21.39,74,0,2.69,MM,1708123549
301,askino,56.0901,56.5783,-17.04,87,100,1.95,RU,1708123549
302,sanctuary point,-35.1114,150.629,26.66,71,9,0.88,AU,1708123550
303,nabire,-3.3667,135.4833,27.47,75,38,1.04,ID,1708123550
304,san mariano,7.5,126.0,21.79,89,12,1.03,PH,1708123550
305,los zacatones,22.95,-102.05,12.41,71,100,6.72,MX,1708123550
306,selfoss,63.9331,-20.9971,1.69,86,100,4.0,IS,1708123550
307,guiuan,11.0333,125.7247,27.31,66,91,5.65,PH,1708123550
308,souillac,-20.5167,57.5167,27.21,83,40,5.14,MU,1708123551
309,saldanha,-33.0117,17.9442,15.03,72,5,5.74,ZA,1708123551
310,kodinsk,58.6881,99.1844,-26.62,99,100,1.12,RU,1708123551
311,bel ombre,-4.6167,55.4167,28.91,84,75,4.63,SC,1708123552
312,boyolangu,-8.1181,111.8935,24.86,92,98,0.46,ID,1708123552
313,wajir,1.7471,40.0573,28.01,63,8,5.36,KE,1708123552
314,kota kinabalu,5.9749,116.0724,22.99,88,20,1.54,MY,1708123552
315,smithers,54.7804,-127.1743,1.18,40,0,2.57,CA,1708123552
316,martin,27.0837,-80.4164,24.99,75,88,1.07,US,1708123552
317,qamdo,31.1667,97.2333,-10.31,51,79,2.15,CN,1708123552
318,san agustin de valle fertil,-30.6335,-67.4682,29.32,37,48,7.88,AR,1708123553
319,chimoio,-19.1164,33.4833,23.92,88,0,1.49,MZ,1708123553
320,nelson bay,-32.7167,152.15,27.83,78,11,2.24,AU,1708123553
321,ouadda,8.0777,22.4007,23.13,24,73,2.75,CF,1708123553
322,shiyan,32.6475,110.7781,7.02,79,0,0.73,CN,1708123553
323,san fernando de apure,7.8878,-67.4724,32.01,32,75,2.23,VE,1708123553
324,midvagur,62.0511,-7.1939,1.46,93,75,1.54,FO,1708123553
325,hasaki,35.7333,140.8333,5.22,64,97,5.74,JP,1708123554
326,al kharijah,25.4514,30.5464,12.61,43,0,2.39,EG,1708123554
327,karangampel,-6.4622,108.4519,25.87,87,96,2.42,ID,1708123554
328,amara,31.8406,47.1396,16.24,75,1,4.01,IQ,1708123554
329,susuman,62.7833,148.1667,-45.57,100,77,0.89,RU,1708123554
330,ilebo,-4.3167,20.5833,22.94,95,98,0.42,CD,1708123554
331,st. john's,47.5649,-52.7093,-0.96,94,75,4.12,CA,1708123283
332,guankou,28.15,113.6333,9.89,93,95,1.66,CN,1708123555
333,rahuri,19.3833,74.65,22.86,36,65,0.95,IN,1708123555
334,khamis mushait,18.3064,42.7292,16.34,41,0,2.06,SA,1708123483
335,braidwood,41.265,-88.2123,0.01,83,100,3.28,US,1708123555
336,mazyr,52.0495,29.2456,1.85,88,38,2.8,BY,1708123555
337,itupiranga,-5.1347,-49.3267,25.18,97,99,1.02,BR,1708123555
338,crane,31.3974,-102.3501,19.13,22,93,7.55,US,1708123555
339,benghazi,32.1167,20.0667,14.3,62,10,1.59,LY,1708123555
340,santo antonio,-6.3106,-35.4789,26.44,78,83,2.19,BR,1708123556
341,vetluzhskiy,58.3902,45.4654,-16.47,96,100,2.64,RU,1708123556
342,emerald,-23.5333,148.1667,24.08,89,100,6.45,AU,1708123295
343,ironwood,46.4547,-90.171,-11.21,78,100,4.63,US,1708123556
344,la gi,10.6667,107.7833,21.62,86,9,5.64,VN,1708123556
345,vilhena,-12.7406,-60.1458,24.12,88,20,3.09,BR,1708123556
346,carinhanha,-14.3047,-43.765,25.67,72,99,3.64,BR,1708123556
347,axim,4.8699,-2.2405,27.7,86,73,3.47,GH,1708123556
348,chibougamau,49.9168,-74.3659,-12.21,72,100,4.63,CA,1708123557
349,antsiranana,-12.2787,49.2917,26.0,87,90,4.56,MG,1708123275
350,rikaze,29.25,88.8833,-2.71,34,0,1.16,CN,1708123557
351,sidney,-33.8679,151.2073,27.43,77,75,2.57,AU,1708123327
352,alfenas,-21.4292,-45.9472,19.75,91,5,0.93,BR,1708123557
353,port macquarie,-31.4333,152.9167,25.44,70,11,1.62,AU,1708123557
354,naama,33.2667,-0.3167,8.63,55,92,7.21,DZ,1708123557
355,sao felix do xingu,-6.6447,-51.995,23.98,96,98,0.61,BR,1708123558
356,oamaru,-45.0784,170.9801,18.54,64,89,3.25,NZ,1708123558
357,avarua,-21.2078,-159.775,27.03,74,40,4.12,CK,1708123558
358,burley,42.5357,-113.7928,3.98,62,20,6.69,US,1708123558
359,xiva,41.3783,60.3639,-7.01,16,100,11.33,UZ,1708123558
360,pamandzi,-12.7967,45.2794,28.88,79,20,6.17,YT,1708123558
361,myitkyina,25.3833,97.4,14.05,72,0,1.03,MM,1708123558
362,shache,38.4167,77.2406,7.62,40,89,0.99,CN,1708123559
363,micheweni,-4.9667,39.8333,28.12,83,100,5.09,TZ,1708123559
364,toma,12.7667,-2.8833,24.64,13,16,4.53,BF,1708123559
365,barcelos,41.5388,-8.6151,13.8,88,65,0.67,PT,1708123372
366,iwanai,42.9744,140.5089,-5.21,81,98,2.69,JP,1708123559
367,kapuskasing,49.4169,-82.4331,-16.95,71,100,4.12,CA,1708123559
368,afaahiti,-17.75,-149.2833,29.93,81,98,8.67,PF,1708123559
369,mejit,10.2753,170.8646,26.27,82,100,10.57,MH,1708123559
370,kamaishi,39.2667,141.8833,0.94,69,60,0.22,JP,1708123560
371,naliya,23.2667,68.8333,21.4,29,26,4.41,IN,1708123560
372,namibe,-15.1961,12.1522,24.46,83,92,2.89,AO,1708123560
373,bakchar,57.0186,82.0711,-22.39,98,100,2.58,RU,1708123560
374,cidade velha,14.9167,-23.6167,24.26,73,0,7.2,CV,1708123560
375,galveston,29.3669,-94.9669,19.06,92,100,5.14,US,1708123479
376,daru,-9.0763,143.2092,27.53,86,96,3.27,PG,1708123560
377,yima,34.7381,111.8839,4.5,72,0,1.12,CN,1708123561
378,tangalle,6.024,80.7911,25.96,77,100,5.98,LK,1708123561
379,new norfolk,-42.7826,147.0587,19.95,53,80,1.43,AU,1708123561
380,moengo,5.6167,-54.4,25.94,73,86,3.34,SR,1708123561
381,victorica,-36.2151,-65.4359,29.8,32,0,8.42,AR,1708123561
382,kencong,-8.2833,113.3667,24.93,89,90,1.26,ID,1708123510
383,northam,51.0333,-4.2167,11.25,97,61,4.06,GB,1708123562
384,basco,20.4487,121.9702,23.06,78,81,7.19,PH,1708123562
385,xi'an,34.2583,108.9286,-1.55,65,0,1.31,CN,1708123562
386,selma,36.5708,-119.6121,17.02,82,0,0.0,US,1708123472
387,hotan,37.0997,79.9269,7.78,32,61,4.92,CN,1708123562
388,fortaleza,-3.7227,-38.5247,29.48,89,20,3.6,BR,1708123402
389,aldinga beach,-35.2793,138.4604,24.59,47,70,2.28,AU,1708123563
390,ocean shores,46.9737,-124.1563,8.9,66,0,8.75,US,1708123496
391,yaren,-0.5472,166.916,28.91,76,99,6.07,NR,1708123563
392,wangaratta,-36.3667,146.3333,27.39,69,5,2.1,AU,1708123563
393,qinzhou,21.95,108.6167,17.68,85,7,2.67,CN,1708123563
394,tucuma,-0.1833,-50.05,24.89,92,30,2.94,BR,1708123390
395,aasiaat,68.7098,-52.8699,-16.34,86,100,1.42,GL,1708123564
396,dzhetygara,52.1908,61.2006,-19.96,83,86,2.47,KZ,1708123564
397,katsuura,35.1333,140.3,10.01,69,98,6.82,JP,1708123564
398,iquique,-20.2208,-70.1431,25.02,79,89,3.27,CL,1708123439
399,cockburn town,21.4612,-71.1419,24.98,69,75,7.2,TC,1708123564
400,gafsa,34.425,8.7842,15.12,63,40,5.14,TN,1708123565
401,menongue,-14.6585,17.691,19.6,76,84,1.95,AO,1708123565
402,flin flon,54.7682,-101.865,-5.09,54,100,2.06,CA,1708123565
403,mareeba,-17.0,145.4333,26.91,88,99,1.49,AU,1708123565
404,gatesville,31.4352,-97.7439,19.38,63,0,6.69,US,1708123565
405,buta,2.7858,24.73,27.21,60,99,3.05,CD,1708123565
406,ormond-by-the-sea,29.3491,-81.0665,23.13,76,75,3.09,US,1708123566
407,keflavik,64.0049,-22.5624,4.24,75,75,10.29,IS,1708123566
408,puerto leguizamo,-0.1934,-74.7819,22.74,98,100,0.11,CO,1708123566
409,bangassou,4.7413,22.8184,23.88,44,72,0.63,CF,1708123566
410,aioun,16.6614,-9.6149,26.81,14,3,5.35,MR,1708123566
411,santa ana de yacuma,-13.75,-65.4333,26.97,83,75,2.06,BO,1708123567
412,balikpapan,-1.2675,116.8289,24.55,94,20,2.06,ID,1708123567
413,sinabang,2.4803,96.3801,26.94,81,78,0.57,ID,1708123567
414,bismarck,46.8083,-100.7837,-7.09,51,75,11.83,US,1708123296
415,ambovombe,-25.1667,46.0833,23.52,90,1,3.58,MG,1708123567
416,san julian,21.0167,-102.1667,11.34,81,100,3.92,MX,1708123567
417,tagiura,32.8817,13.3506,17.12,48,100,4.48,LY,1708123568
418,la maddalena,41.2142,9.4083,13.09,80,100,4.29,IT,1708123568
419,portland,45.5234,-122.6762,8.32,60,75,11.83,US,1708123568
420,shevchenko,48.5,35.0,-1.25,61,16,3.52,UA,1708123568
421,nankana sahib,31.4475,73.6972,12.43,17,52,1.24,PK,1708123569
422,albertina,-22.2008,-46.6158,19.07,93,48,0.71,BR,1708123569
423,katsuren-haebaru,26.3369,127.8719,18.38,80,100,1.54,JP,1708123569
424,lhasa,29.65,91.1,-5.12,40,0,0.5,CN,1708123569
425,taltal,-25.4,-70.4833,22.01,75,74,4.12,CL,1708123569
426,pacific grove,36.6177,-121.9166,17.72,79,0,3.09,US,1708123570
427,darnetal,49.4453,1.1514,10.75,66,100,4.63,FR,1708123570
428,shimoda,34.6667,138.95,6.17,75,99,7.44,JP,1708123570
429,santa cruz,-17.8,-63.1667,32.03,58,40,6.17,BO,1708123570
430,ixtapa,20.7,-105.2,22.35,94,100,1.03,MX,1708123570
431,'ain benian,36.8028,2.9219,15.03,87,99,7.41,DZ,1708123571
432,olovyannaya,50.95,115.5667,-15.41,80,92,5.06,RU,1708123571
433,ullal,12.8,74.85,25.53,83,100,0.0,IN,1708123571
434,dzhangala,49.2167,50.3333,-11.08,65,99,6.53,KZ,1708123571
435,gebeit,21.0667,36.3167,12.82,52,0,1.87,SD,1708123571
436,port-saint-louis-du-rhone,43.3833,4.8,11.02,100,100,1.54,FR,1708123572
437,de aar,-30.6497,24.0123,12.19,37,6,3.73,ZA,1708123572
438,wamba,8.9333,8.6,24.67,19,96,1.94,NG,1708123572
439,huarmey,-10.0681,-78.1522,25.89,77,42,5.16,PE,1708123572
440,kavarna,43.4333,28.3333,2.6,79,93,5.52,BG,1708123572
441,magistral'nyy,56.1725,107.4458,-28.68,95,100,1.56,RU,1708123572
442,borogontsy,62.6683,131.1683,-40.67,92,29,2.62,RU,1708123572
443,yuzhno-kurilsk,44.0306,145.8556,-7.57,86,45,0.8,RU,1708123573
444,kourou,5.1552,-52.6478,28.03,84,99,3.69,GF,1708123573
445,itako,35.9333,140.55,5.25,78,77,3.72,JP,1708123573
446,naze,28.3667,129.4833,12.51,67,100,2.75,JP,1708123573
447,hilton head island,32.2163,-80.7526,20.06,67,100,0.45,US,1708123545
448,peterhead,57.5058,-1.7981,1.22,88,38,1.87,GB,1708123573
449,brookville,39.8367,-84.4113,-0.44,95,100,5.14,US,1708123574
450,abilene,32.4487,-99.7331,11.12,61,100,10.29,US,1708123346
451,geraldton,-28.7667,114.6,19.23,88,18,4.12,AU,1708123574
452,suining,30.508,105.5733,9.5,78,0,1.37,CN,1708123574
453,kolwezi,-10.7148,25.4667,16.64,96,84,1.22,CD,1708123574
454,garoowe,8.4054,48.4845,21.09,74,1,3.87,SO,1708123574
455,saint-francois,46.4154,3.9054,9.69,94,100,6.17,FR,1708123574
456,sao raimundo nonato,-9.0153,-42.6994,26.88,66,93,0.8,BR,1708123575
457,meulaboh,4.1363,96.1285,25.23,88,99,1.58,ID,1708123575
458,lae,-6.7221,146.9847,27.37,70,96,1.6,PG,1708123575
459,arvayheer,46.2639,102.775,-3.49,55,100,9.17,MN,1708123575
460,tazacorte,28.629,-17.9293,19.54,77,100,6.17,ES,1708123575
461,vernon,50.2581,-119.2691,2.56,55,27,1.03,CA,1708123513
462,nadi,-17.8,177.4167,29.0,70,40,5.14,FJ,1708123444
463,mosjoen,65.836,13.1908,1.06,100,100,1.03,NO,1708123576
464,antsohihy,-14.8796,47.9875,23.51,96,95,1.2,MG,1708123576
465,elliot lake,46.3834,-82.6331,-10.9,90,100,1.07,CA,1708123576
466,el granada,37.5027,-122.4694,17.46,73,0,3.09,US,1708123576
467,langen,49.9933,8.6728,12.85,92,100,3.6,DE,1708123577
468,kegen,43.0197,79.2203,-24.26,98,99,0.7,KZ,1708123287
469,grand gaube,-20.0064,57.6608,27.43,84,56,2.24,MU,1708123577
470,wanxian,30.8039,108.3897,9.52,86,0,1.58,CN,1708123577
471,touros,-5.1989,-35.4608,27.14,82,41,2.99,BR,1708123577
472,jayapura,-2.5333,140.7,25.66,78,100,1.16,ID,1708123577
473,east london,-33.0153,27.9116,19.01,56,0,3.87,ZA,1708123508
474,nchelenge,-9.3451,28.734,22.53,85,100,1.97,ZM,1708123578
475,xinyuan,37.3,99.0,-6.79,36,100,1.97,CN,1708123578
476,greenville,35.6127,-77.3663,16.09,53,0,4.02,US,1708123578
477,padang,-0.9492,100.3543,26.03,87,100,2.26,ID,1708123573
478,aranda de duero,41.6704,-3.6892,5.63,78,35,1.44,ES,1708123578
479,chinsali,-10.5414,32.0816,18.41,97,100,1.82,ZM,1708123579
480,al bahah,20.0129,41.4677,14.68,81,63,2.12,SA,1708123579
481,villa dolores,-31.9459,-65.1896,28.0,42,0,0.59,AR,1708123579
482,cabedelo,-6.9811,-34.8339,27.37,79,91,2.44,BR,1708123579
483,plastun,44.7561,136.2939,-7.32,66,100,1.44,RU,1708123579
484,aras-asan,8.8908,126.3033,25.22,80,43,3.09,PH,1708123579
485,kone,-21.0595,164.8658,29.71,58,21,3.56,NC,1708123580
486,severo-yeniseyskiy,60.3725,93.0408,-29.68,99,100,0.89,RU,1708123580
487,bodaybo,57.8506,114.1933,-23.18,98,100,1.02,RU,1708123580
488,yugorsk,61.3133,63.3319,-26.17,100,91,1.36,RU,1708123580
489,medeiros neto,-17.3739,-40.2206,24.15,79,100,1.72,BR,1708123580
490,paita,-5.0892,-81.1144,26.85,75,19,6.86,PE,1708123580
491,kapa'a,22.0752,-159.319,23.99,61,40,8.75,US,1708123581
492,cidreira,-30.1811,-50.2056,22.89,84,100,7.08,BR,1708123581
493,zouerate,22.7187,-12.4521,25.0,19,19,3.51,MR,1708123581
494,nyala,12.05,24.8833,19.39,21,59,6.71,SD,1708123581
495,kharan,28.5833,65.4167,17.36,28,2,1.35,PK,1708123453
496,nishon tumani,38.694,65.6751,7.14,61,20,2.06,UZ,1708123582
497,bonthe,7.5264,-12.505,26.73,84,8,3.2,SL,1708123582
498,tsiombe,-25.3,45.4833,23.98,91,9,3.42,MG,1708123582
499,bargaal,11.2864,51.0773,23.3,82,8,1.65,SO,1708123582
500,qingdao,36.0986,120.3719,0.78,86,0,3.0,CN,1708123582
501,tarko-sale,64.9225,77.785,-30.11,91,13,4.43,RU,1708123583
502,necochea,-38.5473,-58.7368,21.89,66,0,8.79,AR,1708123583
503,sao tome,0.3365,6.7273,28.02,83,40,2.06,ST,1708123583
504,aweil,8.7682,27.4002,25.78,21,63,2.53,SS,1708123583
505,kibondo,-3.5864,30.7203,16.7,94,100,0.67,TZ,1708123583
506,maceio,-9.6658,-35.7353,26.69,83,75,2.57,BR,1708123584
507,west mackay,-21.1481,149.1605,25.35,82,99,6.72,AU,1708123584
508,viedma,-40.8135,-62.9967,25.1,53,0,9.51,AR,1708123292
509,walvis bay,-22.9575,14.5053,15.53,77,33,0.0,NA,1708123584
510,tavda,58.0425,65.2726,-25.17,100,85,1.34,RU,1708123585
511,price,39.5994,-110.8107,8.4,42,100,5.14,US,1708123585
512,kilindoni,-7.9139,39.6668,28.28,80,99,5.33,TZ,1708123585
513,castillos,-34.1667,-53.8333,21.1,81,100,4.21,UY,1708123585
514,pocri,8.2667,-80.55,33.63,59,77,7.49,PA,1708123585
515,igrim,63.1906,64.4162,-31.47,100,48,1.18,RU,1708123585
516,fort mcmurray,56.7268,-111.381,3.77,38,0,8.23,CA,1708123536
517,mwinilunga,-11.7358,24.4293,16.99,97,59,1.65,ZM,1708123586
518,dudinka,69.4058,86.1778,-34.07,95,22,3.13,RU,1708123586
519,virginia,37.5481,-77.4467,11.08,43,100,3.09,US,1708123289
520,taco pozo,-25.6167,-63.2833,29.51,49,69,1.87,AR,1708123586
521,kotra,25.8167,79.3167,14.44,39,0,1.56,IN,1708123587
522,fort saskatchewan,53.7168,-113.2187,1.55,34,7,2.06,CA,1708123587
523,ciudad insurgentes,25.2625,-111.7753,23.68,34,0,7.91,MX,1708123587
524,taroa,8.7058,171.2275,27.2,78,100,9.33,MH,1708123587
525,brigantine,39.4101,-74.3646,5.11,44,0,4.12,US,1708123587
526,carnarvon,-24.8667,113.6333,28.06,53,18,4.87,AU,1708123587
527,rio grande,-32.035,-52.0986,25.06,82,99,6.54,BR,1708123588
528,catmon,10.7167,124.0,23.58,73,72,2.8,PH,1708123588
529,sao gabriel da cachoeira,-0.1303,-67.0892,27.18,77,66,0.35,BR,1708123588
530,lerwick,60.1545,-1.1494,3.0,68,32,4.12,GB,1708123588
531,farmville,37.3021,-78.3919,10.32,50,0,0.0,US,1708123588
532,santa gertrudis,19.7333,-99.3667,20.38,33,82,6.88,MX,1708123588
533,farasan,16.7022,42.1183,26.33,79,71,2.61,SA,1708123589
534,nantucket,41.2835,-70.0995,3.08,51,0,7.2,US,1708123589
535,rio preto da eva,-2.6994,-59.6997,26.46,87,100,0.3,BR,1708123589
536,canto do buriti,-8.11,-42.9444,27.8,66,93,1.65,BR,1708123589
537,nizhnegorskiy,45.4479,34.7384,2.0,81,100,5.91,UA,1708123589
538,praia da vitoria,38.7333,-27.0667,19.14,72,20,8.55,PT,1708123590
539,robore,-18.3333,-59.75,28.91,58,83,1.07,BO,1708123590
540,bull savanna,17.8868,-77.5902,25.16,75,32,5.54,JM,1708123590
541,turinskaya sloboda,57.6232,64.3858,-26.89,99,92,1.61,RU,1708123590
542,vila franca do campo,37.7167,-25.4333,18.27,99,99,6.33,PT,1708123590
543,illizi,26.4833,8.4667,17.72,14,48,1.5,DZ,1708123590
544,nouadhibou,20.931,-17.0347,20.99,73,52,7.2,MR,1708123590
545,bartica,6.4,-58.6167,28.18,70,69,2.35,GY,1708123591
546,poll,50.7833,6.6667,11.12,93,75,1.54,DE,1708123591
547,singaraja,-8.112,115.0882,26.39,79,64,1.52,ID,1708123591
548,bondo,3.8146,23.6866,26.23,62,99,1.43,CD,1708123591
549,sambava,-14.2667,50.1667,25.75,89,92,1.87,MG,1708123591
550,monte argentario,42.4345,11.1195,10.88,24,100,5.14,IT,1708123592
551,swakopmund,-22.6833,14.5333,15.47,85,25,2.54,NA,1708123592
552,lib,8.3122,167.3766,27.15,79,82,9.12,MH,1708123592
553,launceston,-41.45,147.1667,17.67,82,75,1.54,AU,1708123592
554,yeraliyev,43.2,51.65,-3.22,62,100,9.86,KZ,1708123593
555,chinde,26.8418,88.0763,9.32,67,0,1.83,NP,1708123593
556,bubaque,11.2833,-15.8333,26.49,79,39,6.12,GW,1708123593
557,pokhara,28.2333,83.9833,12.5,43,6,2.38,NP,1708123593
558,alakurtti,66.9672,30.3491,-9.67,96,100,2.08,RU,1708123593
559,aykhal,66.0,111.5,-40.08,100,100,3.29,RU,1708123593
560,urengoy,65.9667,78.3667,-31.35,91,14,3.17,RU,1708123593
561,mbandaka,0.0487,18.2603,26.6,68,93,2.19,CD,1708123594
562,la manga del mar menor,37.6413,-0.7165,15.15,93,75,1.54,ES,1708123594
563,kiunga,-6.1219,141.2906,24.06,99,100,1.28,PG,1708123594
564,lautoka,-17.6167,177.4667,28.92,70,40,5.14,FJ,1708123367
565,cordele,31.9635,-83.7824,17.29,45,75,3.09,US,1708123594
566,al jawf,29.5,38.75,10.45,56,20,3.09,SA,1708123595
567,seven pagodas,12.6264,80.1722,25.03,73,46,3.08,IN,1708123595
568,al majaridah,19.1236,41.9111,23.87,78,74,0.68,SA,1708123595
569,bikenibeu village,1.3673,173.1241,28.98,84,40,3.6,KI,1708123595
570,xining,36.6167,101.7667,1.17,27,72,1.02,CN,1708123595
571,tomatlan,19.9333,-105.25,21.01,88,100,0.83,MX,1708123596
572,pionerskiy,54.9508,20.2275,10.91,81,96,9.8,RU,1708123596
573,port blair,11.6667,92.75,25.92,71,98,3.59,IN,1708123596
